[
 {
  "id": "7J2V6FQQ+5P",
  "code": "7J2V6FQQ+5P",
  "lat": 10.237925,
  "lon": 77.489314,
  "latlon": "10.237925, 77.489314",
  "place": "Kodaikanal",
  "state": "Tamil Nadu",
  "image": null,
  "months": "June to September",
  "category": "Relaxation; Nature",
  "mindays": 3,
  "maxdays": 5,
  "description": "Kodaikanal Lake, Coakers Walk, Green Valley View Point, Bryant Park"
 },
 {
  "id": "7J3Q7QHM+QP",
  "code": "7J3Q7QHM+QP",
  "lat": 11.27946,
  "lon": 75.784323,
  "latlon": "11.279460, 75.784323",
  "place": "Calicut",
  "state": "Kerala",
  "image": null,
  "months": "October to March",
  "category": "Relaxation; Nature; Adventure",
  "mindays": 3,
  "maxdays": 5,
  "description": "add description"
 },
 {
  "id": "7J3R8QXQ+G3",
  "code": "7J3R8QXQ+G3",
  "lat": 11.348866,
  "lon": 76.787723,
  "latlon": "11.348866, 76.787723",
  "place": "Coonoor",
  "state": "Tamil Nadu",
  "image": null,
  "months": "October to March",
  "category": "Relaxation; Nature; Experience",
  "mindays": 3,
  "maxdays": 5,
  "description": "Sim’s Park, Highfield Tea Factory, Lamb’s Rock, Ketti Valley, Hidden Valley"
 },
 {
  "id": "7J3RCM5V+63",
  "code": "7J3RCM5V+63",
  "lat": 11.408082,
  "lon": 76.692731,
  "latlon": "11.408082, 76.692731",
  "place": "Ooty",
  "state": "Tamil Nadu",
  "image": null,
  "months": "April to June and September to November",
  "category": "Nature; Relaxation, Adventure",
  "mindays": 3,
  "maxdays": 5,
  "description": "Government Rose Garden, Doddabetta Peak, Botanical Garden, Ooty Lake, Nilgiri Mountain Railway"
 },
 {
  "id": "7J3RMJ8H+9R",
  "code": "7J3RMJ8H+9R",
  "lat": 11.665969,
  "lon": 76.6296,
  "latlon": "11.665969, 76.629600",
  "place": "Bandipur",
  "state": "Karnataka",
  "image": null,
  "months": "October to March",
  "category": "Nature; Adventure",
  "mindays": 3,
  "maxdays": 3,
  "description": "Safari Tours, Jungle resorts"
 },
 {
  "id": "7J3RP34H+39",
  "code": "7J3RP34H+39",
  "lat": 11.705215,
  "lon": 76.078397,
  "latlon": "11.705215, 76.078397",
  "place": "Wayanad",
  "state": "Kerala",
  "image": null,
  "months": "September to April",
  "category": "Nature; Relaxation, Adventure",
  "mindays": 3,
  "maxdays": 5,
  "description": "Tholpetty Wildlife Sanctuary, Banasura Sagar Dam, Phantom Rock, Edakkal Caves"
 },
 {
  "id": "7J3VX4WV+73",
  "code": "7J3VX4WV+73",
  "lat": 11.995638,
  "lon": 77.142745,
  "latlon": "11.995638, 77.142745",
  "place": "BR Hills",
  "state": "Karnataka",
  "image": null,
  "months": "October to March",
  "category": "Relaxation; Nature; Religion; Adventure",
  "mindays": 1,
  "maxdays": 2,
  "description": "BRT Wildlife Sanctuary, Biligiri Rangaswamy Temple, Dodda Sampige Mara"
 },
 {
  "id": "7J3WQ5GR+F5",
  "code": "7J3WQ5GR+F5",
  "lat": 11.776222,
  "lon": 78.190399,
  "latlon": "11.776222, 78.190399",
  "place": "Yercaud",
  "state": "Tamil Nadu",
  "image": null,
  "months": "October to February",
  "category": "Relaxation; Nature; Adventure; Experience",
  "mindays": 1,
  "maxdays": 2,
  "description": "Killiyur Falls, Lady’s Seat, Shevaroy Hills, Bear’s Cave, Pagoda Point, Coffee plantation"
 },
 {
  "id": "7J3XWRR5+M6",
  "code": "7J3XWRR5+M6",
  "lat": 11.941642,
  "lon": 79.808063,
  "latlon": "11.941642, 79.808063",
  "place": "Pondicherry",
  "state": "Puducherry",
  "image": null,
  "months": "October to March",
  "category": "Relaxation; Nature; Religious",
  "mindays": 3,
  "maxdays": 5,
  "description": "Auroville, Sri Aurobindo Ashram, Paradise Beach, Rock Beach, Serenity Beach, The Basilica of the Sacred Heart of Jesus"
 },
 {
  "id": "7J4QCP8J+X6",
  "code": "7J4QCP8J+X6",
  "lat": 12.417395,
  "lon": 75.730517,
  "latlon": "12.417395, 75.730517",
  "place": "Coorg",
  "state": "Karnataka",
  "image": null,
  "months": "September to June",
  "category": "Nature; Relaxation, Adventure; Religious",
  "mindays": 3,
  "maxdays": 5,
  "description": "Abbey Falls, Talakaveri, Brahmagiri Wildlife Sanctuary, Namdroling Monastery, Honnamana Kere Lake"
 },
 {
  "id": "7J4QWQRM+W2",
  "code": "7J4QWQRM+W2",
  "lat": 12.942282,
  "lon": 75.782564,
  "latlon": "12.942282, 75.782564",
  "place": "Sakleshpur",
  "state": "karnataka",
  "image": null,
  "months": "All year",
  "category": "Relaxation; Nature; Adventure; Experience",
  "mindays": 2,
  "maxdays": 2,
  "description": "Coffee plantations, mountains"
 },
 {
  "id": "7J4R8M44+32",
  "code": "7J4R8M44+32",
  "lat": 12.305174,
  "lon": 76.655109,
  "latlon": "12.305174, 76.655109",
  "place": "Mysore",
  "state": "Karnataka",
  "image": null,
  "months": "October to February",
  "category": "Culture; Religion; Relaxation; Food; Architecture; History",
  "mindays": 3,
  "maxdays": 5,
  "description": "Mysore Palace, Sri Chamarajendra Zoological Gardens, Sri Chamundeshwari Ammanavara Temple, St. Philomena’s Cathedral, Jaganmohan Palace Art Gallery And Auditorium"
 },
 {
  "id": "7J4V4QCH+26",
  "code": "7J4V4QCH+26",
  "lat": 12.120028,
  "lon": 77.778089,
  "latlon": "12.120028, 77.778089",
  "place": "Hogenakkal Falls",
  "state": "Karnataka",
  "image": null,
  "months": "October to February",
  "category": "Nature; Food",
  "mindays": 1,
  "maxdays": 2,
  "description": "add description"
 },
 {
  "id": "7J4V7C5X+69",
  "code": "7J4V7C5X+69",
  "lat": 12.258114,
  "lon": 77.448389,
  "latlon": "12.258114, 77.448389",
  "place": "Mekedatu",
  "state": "karnataka",
  "image": null,
  "months": "All year",
  "category": "Nature; Adventure; Relaxation",
  "mindays": 1,
  "maxdays": 1,
  "description": "Narrow gorges, fast-flowing river and overall beautiful scenery."
 },
 {
  "id": "7J4V7CWP+WR",
  "code": "7J4V7CWP+WR",
  "lat": 12.297361,
  "lon": 77.437045,
  "latlon": "12.297361, 77.437045",
  "place": "Sangam",
  "state": "karnataka",
  "image": null,
  "months": "All year",
  "category": "Nature; Adventure",
  "mindays": 1,
  "maxdays": 1,
  "description": "Coracle Boat ride, Walking inside the river"
 },
 {
  "id": "7J4V85FX+73",
  "code": "7J4V85FX+73",
  "lat": 12.3232,
  "lon": 77.197652,
  "latlon": "12.323200, 77.197652",
  "place": "Doddamakali",
  "state": "Karnataka",
  "image": null,
  "months": "July, August and February",
  "category": "Relaxation; Nature",
  "mindays": 1,
  "maxdays": 2,
  "description": "Bheemeshwari Fishing Camp, Shivasamudram Falls"
 },
 {
  "id": "7J4WHJQJ+7C",
  "code": "7J4WHJQJ+7C",
  "lat": 12.588236,
  "lon": 78.631106,
  "latlon": "12.588236, 78.631106",
  "place": "Yelagiri",
  "state": "Tamil Nadu",
  "image": null,
  "months": "May to June and November to February",
  "category": "Relaxation; Nature",
  "mindays": 1,
  "maxdays": 2,
  "description": "Punganoor Lake, Jalagamparai Falls, Yelagiri Nature Park"
 },
 {
  "id": "7J5Q6773+93",
  "code": "7J5Q6773+93",
  "lat": 13.213441,
  "lon": 75.252725,
  "latlon": "13.213441, 75.252725",
  "place": "Kudremukh",
  "state": "karnataka",
  "image": null,
  "months": "All year",
  "category": "Relaxation; Nature; Adventure",
  "mindays": 1,
  "maxdays": 2,
  "description": "add description"
 },
 {
  "id": "7J5Q8Q7C+9F",
  "code": "7J5Q8Q7C+9F",
  "lat": 13.313403,
  "lon": 75.771216,
  "latlon": "13.313403, 75.771216",
  "place": "Chikmagalur",
  "state": "Karnataka",
  "image": null,
  "months": "September to May",
  "category": "Nature; Experience, Relaxation",
  "mindays": 3,
  "maxdays": 5,
  "description": "Mullayanagiri Peak, Mahatma Gandhi Park, Kudurekuha Jamly Hill, Coffee estates"
 },
 {
  "id": "7J5QG35W+RJ",
  "code": "7J5QG35W+RJ",
  "lat": 13.509591,
  "lon": 75.096511,
  "latlon": "13.509591, 75.096511",
  "place": "Agumbe",
  "state": "Karnataka",
  "image": null,
  "months": "November to February",
  "category": "Relaxation; Nature",
  "mindays": 3,
  "maxdays": 5,
  "description": "Onake Abbi Falls, Barkana Falls, Sunset Point, Jogigundi Falls"
 },
 {
  "id": "7J5V9MCH+8V",
  "code": "7J5V9MCH+8V",
  "lat": 13.370802,
  "lon": 77.679667,
  "latlon": "13.370802, 77.679667",
  "place": "Nandi Hills",
  "state": "Karnataka",
  "image": null,
  "months": "September to May",
  "category": "Nature",
  "mindays": 1,
  "maxdays": 1,
  "description": "Tipu’s Summer Residence, Tipu’s Drop, Sunrise Point, Yoga Nandeeshwara Temple"
 },
 {
  "id": "7J5VCM8M+V8",
  "code": "7J5VCM8M+V8",
  "lat": 13.41721,
  "lon": 77.683307,
  "latlon": "13.417210, 77.683307",
  "place": "Skandagiri",
  "state": "Karnataka",
  "image": null,
  "months": "All year",
  "category": "Nature; Adventure",
  "mindays": 1,
  "maxdays": 1,
  "description": "Midnight trekking"
 },
 {
  "id": "7J5VHMGG+XF",
  "code": "7J5VHMGG+XF",
  "lat": 13.577377,
  "lon": 77.676151,
  "latlon": "13.577377, 77.676151",
  "place": "Avalabetta",
  "state": "karnataka",
  "image": null,
  "months": "All year",
  "category": "Nature; Relaxation",
  "mindays": 1,
  "maxdays": 1,
  "description": "add description"
 },
 {
  "id": "7J5VRJ42+4G",
  "code": "7J5VRJ42+4G",
  "lat": 13.80525,
  "lon": 77.601342,
  "latlon": "13.805250, 77.601342",
  "place": "Lepakshi",
  "state": "andhra pradesh",
  "image": null,
  "months": "All year",
  "category": "Religious; Architecture",
  "mindays": 2,
  "maxdays": 2,
  "description": "Temple dedicated to Papanasheshvara"
 },
 {
  "id": "7J7QWM9J+C6",
  "code": "7J7QWM9J+C6",
  "lat": 15.918576,
  "lon": 75.6806,
  "latlon": "15.918576, 75.680600",
  "place": "Badami",
  "state": "Karnataka",
  "image": null,
  "months": "October to March",
  "category": "Relaxation; Nature; History; Architecture",
  "mindays": 3,
  "maxdays": 5,
  "description": "add description"
 },
 {
  "id": "7J7R8FP6+32",
  "code": "7J7R8FP6+32",
  "lat": 15.335184,
  "lon": 76.460103,
  "latlon": "15.335184, 76.460103",
  "place": "Hampi",
  "state": "karnataka",
  "image": null,
  "months": "October to March",
  "category": "Religious; Architecture",
  "mindays": 1,
  "maxdays": 2,
  "description": "add description"
 }
]